{"coupon_id":16193,"new_offer_status":"publish","new_offer_created_at":"2016-12-15 15:30:59","new_offer_published_at":"2016-12-15 15:30:59","new_offer_created_by":"a-velcihko@rsb.ru","new_offer_updated_at":"2016-12-15 15:30:59","new_offer_updated_by":"a-velcihko@rsb.ru","coupon_title":"Uomo Collezioni","coupon_slug":"uomo-collezioni","post_modified":"2016-12-15 15:30:59","offer_settings":{"offer_highlight":"20% off clothing","coupon_offer":"Get 20% off ready-made clothing","company_name":"Uomo Collezioni","dates":{"date_options":"List End Date","valid_start":"","valid_end":"20171231"},"company_logo":"http:\/\/most.dev\/wp-content\/uploads\/2016\/12\/uomo-e1480685472157.png","featured_image":"","coupon_images":["http:\/\/most.dev\/wp-content\/uploads\/2016\/12\/uomo1-e1480685369858.png"],"marks":[{"terms":"Unless otherwise stated above, for this offer to be valid, the cardmember shall:\r\n(1) pay with a Diners Club or any card within the partner network which is mutually agreed upon, in writing by the parties;\r\n(2) show the offer in print or mobile phone; and\r\n(3) if explicitly required by the merchant, enter the promotional code if purchasing online.\r\nOnly one offer per cardmember can be used and cannot be combined with any other offer, unless otherwise stated. This offer is non-refundable, transferable and carries no monetary alternative.","acceptance_mark_image":"http:\/\/most.dev\/wp-content\/uploads\/2014\/11\/diners_acceptance.png","id":6134,"name":"Diners Club Acceptance Mark"}],"terms":"&lt;p&gt;Uomo Collezioni &amp;#8211; is a brand of luxury men&amp;#8217;s clothing from Italy and the eponymous network of boutiques. In each collection Uomo Collezioni presents everything you need to look stylish and elegant: classic suits and shirts, pants and sports jackets, luxurious knitwear, coats and jackets.&lt;\/p&gt;\n","locations":"","company_email":"","company_phone_number":"","company_website":"http:\/\/www.uomo.ru"},"offer_destination":[{"name":"Moscow","slug":"moscow","term_id":304,"term_taxonomy_id":305,"parent":265},{"name":"Saint Petersburg","slug":"saint-petersburg","term_id":951,"term_taxonomy_id":952,"parent":265}],"offer_tags":[{"name":"Shopping","slug":"shop","term_id":5,"term_taxonomy_id":5}],"slider_coupons":[{"name":"Carousel Coupon","slug":"carousel-coupon","term_id":11,"term_taxonomy_id":11}],"remote_sites":[{"name":"Diners Club Privileges","slug":"dinersclubprivileges","term_id":240,"term_taxonomy_id":240}],"featured":[],"offer_sticky_option":false,"geo_location":{"address":"\u041b\u0435\u043d\u0438\u043d\u0441\u043a\u0438\u0439 \u043f\u0440., 69, \u041c\u043e\u0441\u043a\u0432\u0430, \u0420\u043e\u0441\u0441\u0438\u044f, 119296","lat":55.6902785,"lng":37.5503858},"geolocation_v2":[{"address":"\u041b\u0435\u043d\u0438\u043d\u0441\u043a\u0438\u0439 \u043f\u0440., 69, \u041c\u043e\u0441\u043a\u0432\u0430, \u0420\u043e\u0441\u0441\u0438\u044f, 119296","body":"69, \u041c\u043e\u0441\u043a\u0432\u0430, \u0420\u043e\u0441\u0441\u0438\u044f, 119296","correctedAddress":"\u041b\u0435\u043d\u0438\u043d\u0441\u043a\u0438\u0439 \u043f\u0440., 69, \u041c\u043e\u0441\u043a\u0432\u0430, \u0420\u043e\u0441\u0441\u0438\u044f, 119296","iconid":null,"point":{"lat":55.6902785,"lng":37.5503858},"poly":null,"kml":null,"title":"\u041b\u0435\u043d\u0438\u043d\u0441\u043a\u0438\u0439 \u043f\u0440.","type":null,"viewport":{"sw":{"lat":55.688929519708,"lng":37.549036819708},"ne":{"lat":55.691627480291,"lng":37.551734780292}},"postid":null,"url":null},{"address":"\u041f\u0435\u0442\u0440\u043e\u0432\u043a\u0430 \u0443\u043b., 23\/10, \u041c\u043e\u0441\u043a\u0432\u0430, \u0420\u043e\u0441\u0441\u0438\u044f, 127051","body":"23\/10, \u041c\u043e\u0441\u043a\u0432\u0430, \u0420\u043e\u0441\u0441\u0438\u044f, 127051","correctedAddress":"\u041f\u0435\u0442\u0440\u043e\u0432\u043a\u0430 \u0443\u043b., 23\/10, \u041c\u043e\u0441\u043a\u0432\u0430, \u0420\u043e\u0441\u0441\u0438\u044f, 127051","iconid":null,"point":{"lat":55.765584,"lng":37.614667},"poly":null,"kml":null,"title":"\u041f\u0435\u0442\u0440\u043e\u0432\u043a\u0430 \u0443\u043b.","type":null,"viewport":{"sw":{"lat":55.764235019709,"lng":37.613318019708},"ne":{"lat":55.766932980292,"lng":37.616015980291}},"postid":null,"url":null},{"address":"\u0443\u043b. \u041f\u0440\u0435\u0441\u043d\u0435\u043d\u0441\u043a\u0438\u0439 \u0412\u0430\u043b, 44, \u041c\u043e\u0441\u043a\u0432\u0430, \u0420\u043e\u0441\u0441\u0438\u044f, 123557","body":"44, \u041c\u043e\u0441\u043a\u0432\u0430, \u0420\u043e\u0441\u0441\u0438\u044f, 123557","correctedAddress":"\u0443\u043b. \u041f\u0440\u0435\u0441\u043d\u0435\u043d\u0441\u043a\u0438\u0439 \u0412\u0430\u043b, 44, \u041c\u043e\u0441\u043a\u0432\u0430, \u0420\u043e\u0441\u0441\u0438\u044f, 123557","iconid":null,"point":{"lat":55.7718126,"lng":37.5710616},"poly":null,"kml":null,"title":"\u0443\u043b. \u041f\u0440\u0435\u0441\u043d\u0435\u043d\u0441\u043a\u0438\u0439 \u0412\u0430\u043b","type":null,"viewport":{"sw":{"lat":55.770468169709,"lng":37.569707869709},"ne":{"lat":55.773166130291,"lng":37.572405830291}},"postid":null,"url":null},{"address":"\u041a\u0443\u0442\u0443\u0437\u043e\u0432\u0441\u043a\u0438\u0439 \u043f\u0440\u043e\u0441\u043f., 18, \u041c\u043e\u0441\u043a\u0432\u0430, \u0420\u043e\u0441\u0441\u0438\u044f, 121151","body":"18, \u041c\u043e\u0441\u043a\u0432\u0430, \u0420\u043e\u0441\u0441\u0438\u044f, 121151","correctedAddress":"\u041a\u0443\u0442\u0443\u0437\u043e\u0432\u0441\u043a\u0438\u0439 \u043f\u0440\u043e\u0441\u043f., 18, \u041c\u043e\u0441\u043a\u0432\u0430, \u0420\u043e\u0441\u0441\u0438\u044f, 121151","iconid":null,"point":{"lat":55.7466866,"lng":37.5517233},"poly":null,"kml":null,"title":"\u041a\u0443\u0442\u0443\u0437\u043e\u0432\u0441\u043a\u0438\u0439 \u043f\u0440\u043e\u0441\u043f.","type":null,"viewport":{"sw":{"lat":55.745337619709,"lng":37.550374319708},"ne":{"lat":55.748035580291,"lng":37.553072280292}},"postid":null,"url":null},{"address":"\u0418\u0441\u0430\u0430\u043a\u0438\u0435\u0432\u0441\u043a\u0430\u044f \u043f\u043b., \u0421\u0430\u043d\u043a\u0442-\u041f\u0435\u0442\u0435\u0440\u0431\u0443\u0440\u0433, \u0420\u043e\u0441\u0441\u0438\u044f, 190000","body":"\u0421\u0430\u043d\u043a\u0442-\u041f\u0435\u0442\u0435\u0440\u0431\u0443\u0440\u0433, \u0420\u043e\u0441\u0441\u0438\u044f, 190000","correctedAddress":"\u0418\u0441\u0430\u0430\u043a\u0438\u0435\u0432\u0441\u043a\u0430\u044f \u043f\u043b., \u0421\u0430\u043d\u043a\u0442-\u041f\u0435\u0442\u0435\u0440\u0431\u0443\u0440\u0433, \u0420\u043e\u0441\u0441\u0438\u044f, 190000","iconid":null,"point":{"lat":59.9328637,"lng":30.3066323},"poly":null,"kml":null,"title":"\u0418\u0441\u0430\u0430\u043a\u0438\u0435\u0432\u0441\u043a\u0430\u044f \u043f\u043b.","type":null,"viewport":{"sw":{"lat":59.930994,"lng":30.304003},"ne":{"lat":59.9350161,"lng":30.3097618}},"postid":null,"url":null}],"price_range":"3","small_business":0,"cuisine_type":""}